Trace #1 at position 0.000000
$GPGGA,202534.00,4820.71436627,N,12103.05458795,W,1,11,0.8,2073.705,M,-16.480,M,,*6A
Trace #11 at position 10.000000
$GPGGA,202535.00,4820.71436763,N,12103.05458734,W,1,11,0.8,2073.708,M,-16.480,M,,*6C
Trace #21 at position 20.000000
$GPGGA,202537.00,4820.71436726,N,12103.05459072,W,1,11,0.8,2073.686,M,-16.480,M,,*6C
Trace #31 at position 30.000000
$GPGGA,202538.00,4820.71436765,N,12103.05459301,W,1,11,0.8,2073.687,M,-16.480,M,,*62
Trace #41 at position 40.000000
$GPGGA,202539.00,4820.71436761,N,12103.05459275,W,1,11,0.8,2073.693,M,-16.480,M,,*60
Trace #51 at position 50.000000
$GPGGA,202541.00,4820.71436543,N,12103.05459437,W,1,11,0.8,2073.699,M,-16.480,M,,*67
Trace #61 at position 60.000000
$GPGGA,202542.00,4820.71436531,N,12103.05459761,W,1,11,0.8,2073.681,M,-16.480,M,,*68
Trace #71 at position 70.000000
$GPGGA,202544.00,4820.71436387,N,12103.05459959,W,1,11,0.8,2073.686,M,-16.480,M,,*67
Trace #81 at position 80.000000
$GPGGA,202545.00,4820.71436445,N,12103.05459829,W,1,11,0.8,2073.694,M,-16.480,M,,*6A
Trace #91 at position 90.000000
$GPGGA,202546.00,4820.71436680,N,12103.05460099,W,1,11,0.8,2073.688,M,-16.480,M,,*66
Trace #101 at position 100.000000
$GPGGA,202548.00,4820.71436709,N,12103.05460311,W,1,11,0.8,2073.673,M,-16.480,M,,*6F
Trace #111 at position 110.000000
$GPGGA,202549.00,4820.71436707,N,12103.05460250,W,1,11,0.8,2073.680,M,-16.480,M,,*68
Trace #121 at position 120.000000
$GPGGA,202551.00,4820.71436696,N,12103.05460484,W,1,11,0.8,2073.686,M,-16.480,M,,*61
Trace #131 at position 130.000000
$GPGGA,202552.00,4820.71436763,N,12103.05460631,W,1,11,0.8,2073.690,M,-16.480,M,,*62
Trace #141 at position 140.000000
$GPGGA,202554.00,4820.71436715,N,12103.05460764,W,1,11,0.8,2073.692,M,-16.480,M,,*66
Trace #151 at position 150.000000
$GPGGA,202555.00,4820.71436651,N,12103.05460894,W,1,11,0.8,2073.702,M,-16.480,M,,*6E
Trace #161 at position 160.000000
$GPGGA,202556.00,4820.71436632,N,12103.05460997,W,1,11,0.8,2073.702,M,-16.480,M,,*6A
Trace #171 at position 170.000000
$GPGGA,202558.00,4820.71436152,N,12103.05461091,W,1,11,0.8,2073.690,M,-16.480,M,,*61
Trace #181 at position 180.000000
$GPGGA,202559.00,4820.71436001,N,12103.05460956,W,1,11,0.8,2073.683,M,-16.480,M,,*66
Trace #191 at position 190.000000
$GPGGA,202601.00,4820.71435923,N,12103.05461061,W,1,11,0.8,2073.688,M,-16.480,M,,*65
Trace #201 at position 200.000000
$GPGGA,202602.00,4820.71435920,N,12103.05461215,W,1,11,0.8,2073.686,M,-16.480,M,,*6A
Trace #211 at position 210.000000
$GPGGA,202603.00,4820.71435909,N,12103.05461447,W,1,11,0.8,2073.692,M,-16.480,M,,*64
Trace #221 at position 220.000000
$GPGGA,202605.00,4820.71436021,N,12103.05461922,W,1,11,0.8,2073.679,M,-16.480,M,,*69
Trace #231 at position 230.000000
$GPGGA,202606.00,4820.71435802,N,12103.05461994,W,1,11,0.8,2073.658,M,-16.480,M,,*6E
Trace #241 at position 240.000000
$GPGGA,202608.00,4820.71435982,N,12103.05461794,W,1,11,0.8,2073.672,M,-16.480,M,,*6F
Trace #251 at position 250.000000
$GPGGA,202609.00,4820.71436042,N,12103.05461753,W,1,11,0.8,2073.677,M,-16.480,M,,*66
Trace #261 at position 260.000000
$GPGGA,202610.00,4820.71435949,N,12103.05461697,W,1,11,0.8,2073.667,M,-16.480,M,,*67
Trace #271 at position 270.000000
$GPGGA,202612.00,4820.71436614,N,12103.05461386,W,1,11,0.8,2073.678,M,-16.480,M,,*6A
Trace #281 at position 280.000000
$GPGGA,202613.00,4820.71436696,N,12103.05461641,W,1,11,0.8,2073.682,M,-16.480,M,,*6A
Trace #291 at position 290.000000
$GPGGA,202615.00,4820.71436245,N,12103.05461764,W,1,11,0.8,2073.661,M,-16.480,M,,*6D
Trace #301 at position 300.000000
$GPGGA,202616.00,4820.71436580,N,12103.05461739,W,1,11,0.8,2073.657,M,-16.480,M,,*6D
Trace #311 at position 310.000000
$GPGGA,202617.00,4820.71436459,N,12103.05461887,W,1,11,0.8,2073.648,M,-16.480,M,,*6D
Trace #321 at position 320.000000
$GPGGA,202619.00,4820.71436524,N,12103.05461837,W,1,11,0.8,2073.648,M,-16.480,M,,*63
Trace #331 at position 330.000000
$GPGGA,202620.00,4820.71436739,N,12103.05462211,W,1,11,0.8,2073.645,M,-16.480,M,,*67
Trace #341 at position 340.000000
$GPGGA,202622.00,4820.71436812,N,12103.05462397,W,1,11,0.8,2073.636,M,-16.480,M,,*68
Trace #351 at position 350.000000
$GPGGA,202623.00,4820.71436813,N,12103.05462842,W,1,11,0.8,2073.632,M,-16.480,M,,*6F
Trace #361 at position 360.000000
$GPGGA,202625.00,4820.71437132,N,12103.05462632,W,1,11,0.8,2073.622,M,-16.480,M,,*6A
Trace #371 at position 370.000000
$GPGGA,202626.00,4820.71437475,N,12103.05462565,W,1,11,0.8,2073.629,M,-16.480,M,,*65
Trace #381 at position 380.000000
$GPGGA,202627.00,4820.71437517,N,12103.05462619,W,1,11,0.8,2073.630,M,-16.480,M,,*61
Trace #391 at position 390.000000
$GPGGA,202629.00,4820.71437474,N,12103.05462695,W,1,11,0.8,2073.626,M,-16.480,M,,*68
Trace #401 at position 400.000000
$GPGGA,202630.00,4820.71437678,N,12103.05462611,W,1,11,0.8,2073.622,M,-16.480,M,,*66
Trace #411 at position 410.000000
$GPGGA,202632.00,4820.71437856,N,12103.05462917,W,1,11,0.8,2073.603,M,-16.480,M,,*6C
Trace #421 at position 420.000000
$GPGGA,202633.00,4820.71437632,N,12103.05462931,W,1,11,0.8,2073.595,M,-16.480,M,,*69
Trace #431 at position 430.000000
$GPGGA,202634.00,4820.71437724,N,12103.05462862,W,1,11,0.8,2073.587,M,-16.480,M,,*6C
Trace #441 at position 440.000000
$GPGGA,202636.00,4820.71437675,N,12103.05462801,W,1,11,0.8,2073.569,M,-16.480,M,,*6E
Trace #451 at position 450.000000
$GPGGA,202637.00,4820.71437794,N,12103.05462847,W,1,11,0.8,2073.569,M,-16.480,M,,*63
Trace #461 at position 460.000000
$GPGGA,202639.00,4820.71437855,N,12103.05463124,W,1,11,0.8,2073.564,M,-16.480,M,,*6F
Trace #471 at position 470.000000
$GPGGA,202640.00,4820.71437892,N,12103.05463259,W,1,11,0.8,2073.559,M,-16.480,M,,*6D
Trace #481 at position 480.000000
$GPGGA,202641.00,4820.71437952,N,12103.05463049,W,1,11,0.8,2073.562,M,-16.480,M,,*6A
Trace #491 at position 490.000000
$GPGGA,202643.00,4820.71438005,N,12103.05462935,W,1,11,0.8,2073.549,M,-16.480,M,,*66
Trace #501 at position 500.000000
$GPGGA,202644.00,4820.71438010,N,12103.05462998,W,1,11,0.8,2073.530,M,-16.480,M,,*6C
Trace #511 at position 510.000000
$GPGGA,202646.00,4820.71438165,N,12103.05462899,W,1,11,0.8,2073.533,M,-16.480,M,,*6E
Trace #521 at position 520.000000
$GPGGA,202647.00,4820.71438342,N,12103.05462665,W,1,11,0.8,2073.542,M,-16.480,M,,*63
Trace #531 at position 530.000000
$GPGGA,202648.00,4820.71438210,N,12103.05462742,W,1,11,0.8,2073.524,M,-16.480,M,,*6E
Trace #541 at position 540.000000
$GPGGA,202650.00,4820.71438586,N,12103.05462763,W,1,11,0.8,2073.541,M,-16.480,M,,*6F
Trace #551 at position 550.000000
$GPGGA,202651.00,4820.71438422,N,12103.05462821,W,1,11,0.8,2073.547,M,-16.480,M,,*6E
Trace #561 at position 560.000000
$GPGGA,202653.00,4820.71438413,N,12103.05463193,W,1,11,0.8,2073.548,M,-16.480,M,,*60
Trace #571 at position 570.000000
$GPGGA,202654.00,4820.71438240,N,12103.05463381,W,1,11,0.8,2073.535,M,-16.480,M,,*6C
Trace #581 at position 580.000000
$GPGGA,202656.00,4820.71438311,N,12103.05463621,W,1,11,0.8,2073.546,M,-16.480,M,,*60
Trace #591 at position 590.000000
$GPGGA,202657.00,4820.71438553,N,12103.05463495,W,1,11,0.8,2073.548,M,-16.480,M,,*62
Trace #601 at position 600.000000
$GPGGA,202658.00,4820.71438447,N,12103.05463686,W,1,11,0.8,2073.551,M,-16.480,M,,*61
Trace #611 at position 610.000000
$GPGGA,202700.00,4820.71438817,N,12103.05463985,W,1,11,0.8,2073.545,M,-16.480,M,,*6D
Trace #621 at position 620.000000
$GPGGA,202701.00,4820.71438551,N,12103.05464204,W,1,11,0.8,2073.543,M,-16.480,M,,*60
Trace #631 at position 630.000000
$GPGGA,202703.00,4820.71438372,N,12103.05464591,W,1,11,0.8,2073.519,M,-16.480,M,,*61
Trace #641 at position 640.000000
$GPGGA,202704.00,4820.71438352,N,12103.05464842,W,1,11,0.8,2073.518,M,-16.480,M,,*66
Trace #651 at position 650.000000
$GPGGA,202705.00,4820.71438361,N,12103.05465040,W,1,11,0.8,2073.509,M,-16.480,M,,*6C
Trace #661 at position 660.000000
$GPGGA,202707.00,4820.71438526,N,12103.05465039,W,1,11,0.8,2073.506,M,-16.480,M,,*6A
Trace #671 at position 670.000000
$GPGGA,202708.00,4820.71438591,N,12103.05465418,W,1,11,0.8,2073.499,M,-16.480,M,,*69
Trace #681 at position 680.000000
$GPGGA,202710.00,4820.71438727,N,12103.05465472,W,1,11,0.8,2073.499,M,-16.480,M,,*63
Trace #691 at position 690.000000
$GPGGA,202711.00,4820.71438717,N,12103.05465367,W,1,11,0.8,2073.499,M,-16.480,M,,*62
Trace #701 at position 700.000000
$GPGGA,202712.00,4820.71438815,N,12103.05465249,W,1,11,0.8,2073.506,M,-16.480,M,,*66
Trace #711 at position 710.000000
$GPGGA,202714.00,4820.71438782,N,12103.05465457,W,1,11,0.8,2073.482,M,-16.480,M,,*65
Trace #721 at position 720.000000
$GPGGA,202715.00,4820.71439185,N,12103.05465736,W,1,11,0.8,2073.477,M,-16.480,M,,*6A
Trace #731 at position 730.000000
$GPGGA,202717.00,4820.71439385,N,12103.05465979,W,1,11,0.8,2073.482,M,-16.480,M,,*65
Trace #741 at position 740.000000
$GPGGA,202718.00,4820.71439560,N,12103.05466183,W,1,11,0.8,2073.478,M,-16.480,M,,*6C
Trace #751 at position 750.000000
$GPGGA,202719.00,4820.71439760,N,12103.05466236,W,1,11,0.8,2073.483,M,-16.480,M,,*66
Trace #761 at position 760.000000
$GPGGA,202721.00,4820.71439728,N,12103.05466216,W,1,11,0.8,2073.467,M,-16.480,M,,*69
Trace #771 at position 770.000000
$GPGGA,202722.00,4820.71439673,N,12103.05466197,W,1,11,0.8,2073.455,M,-16.480,M,,*6E
Trace #781 at position 780.000000
$GPGGA,202724.00,4820.71439795,N,12103.05466194,W,1,11,0.8,2073.477,M,-16.480,M,,*62
Trace #791 at position 790.000000
$GPGGA,202725.00,4820.71439675,N,12103.05466348,W,1,11,0.8,2073.480,M,-16.480,M,,*67
Trace #801 at position 800.000000
$GPGGA,202727.00,4820.71439945,N,12103.05466083,W,1,11,0.8,2073.490,M,-16.480,M,,*6C
Trace #811 at position 810.000000
$GPGGA,202728.00,4820.71440020,N,12103.05466144,W,1,11,0.8,2073.498,M,-16.480,M,,*65
Trace #821 at position 820.000000
$GPGGA,202729.00,4820.71439952,N,12103.05466242,W,1,11,0.8,2073.489,M,-16.480,M,,*63
Trace #831 at position 830.000000
$GPGGA,202731.00,4820.71440051,N,12103.05466563,W,1,11,0.8,2073.494,M,-16.480,M,,*66
Trace #841 at position 840.000000
$GPGGA,202732.00,4820.71439987,N,12103.05466752,W,1,11,0.8,2073.479,M,-16.480,M,,*6A
Trace #851 at position 850.000000
$GPGGA,202734.00,4820.71440303,N,12103.05466578,W,1,11,0.8,2073.488,M,-16.480,M,,*60
Trace #861 at position 860.000000
$GPGGA,202735.00,4820.71440200,N,12103.05466455,W,1,11,0.8,2073.496,M,-16.480,M,,*62
Trace #871 at position 870.000000
$GPGGA,202736.00,4820.71440084,N,12103.05466383,W,1,11,0.8,2073.506,M,-16.480,M,,*6B
Trace #881 at position 880.000000
$GPGGA,202738.00,4820.71439927,N,12103.05466431,W,1,11,0.8,2073.506,M,-16.480,M,,*65
Trace #891 at position 890.000000
$GPGGA,202739.00,4820.71439880,N,12103.05466700,W,1,11,0.8,2073.514,M,-16.480,M,,*6A
Trace #901 at position 900.000000
$GPGGA,202741.00,4820.71439618,N,12103.05466563,W,1,11,0.8,2073.516,M,-16.480,M,,*6F
Trace #911 at position 910.000000
$GPGGA,202742.00,4820.71439426,N,12103.05466631,W,1,11,0.8,2073.522,M,-16.480,M,,*60
Trace #921 at position 920.000000
$GPGGA,202743.00,4820.71439249,N,12103.05466634,W,1,11,0.8,2073.530,M,-16.480,M,,*68
Trace #931 at position 930.000000
$GPGGA,202745.00,4820.71439041,N,12103.05466384,W,1,11,0.8,2073.549,M,-16.480,M,,*64
Trace #941 at position 940.000000
$GPGGA,202746.00,4820.71438824,N,12103.05466792,W,1,11,0.8,2073.550,M,-16.480,M,,*66
Trace #951 at position 950.000000
$GPGGA,202748.00,4820.71438484,N,12103.05466759,W,1,11,0.8,2073.559,M,-16.480,M,,*60
Trace #961 at position 960.000000
$GPGGA,202749.00,4820.71438208,N,12103.05466628,W,1,11,0.8,2073.560,M,-16.480,M,,*6E
Trace #971 at position 970.000000
$GPGGA,202750.00,4820.71437998,N,12103.05466499,W,1,11,0.8,2073.565,M,-16.480,M,,*66
Trace #981 at position 980.000000
$GPGGA,202752.00,4820.71437712,N,12103.05466423,W,1,11,0.8,2073.548,M,-16.480,M,,*66
Trace #991 at position 990.000000
$GPGGA,202753.00,4820.71437628,N,12103.05466155,W,1,11,0.8,2073.557,M,-16.480,M,,*65
Trace #1001 at position 1000.000000
$GPGGA,202755.00,4820.71437821,N,12103.05466458,W,1,11,0.8,2073.545,M,-16.480,M,,*6F
Trace #1011 at position 1010.000000
$GPGGA,202756.00,4820.71437684,N,12103.05466384,W,1,11,0.8,2073.545,M,-16.480,M,,*6B
Trace #1021 at position 1020.000000
$GPGGA,202758.00,4820.71437912,N,12103.05466497,W,1,11,0.8,2073.556,M,-16.480,M,,*62
Trace #1031 at position 1030.000000
$GPGGA,202759.00,4820.71437980,N,12103.05466472,W,1,11,0.8,2073.562,M,-16.480,M,,*64
Trace #1041 at position 1040.000000
$GPGGA,202800.00,4820.71437750,N,12103.05466555,W,1,11,0.8,2073.544,M,-16.480,M,,*64
Trace #1051 at position 1050.000000
$GPGGA,202802.00,4820.71437474,N,12103.05466456,W,1,11,0.8,2073.545,M,-16.480,M,,*60
Trace #1061 at position 1060.000000
$GPGGA,202803.00,4820.71437326,N,12103.05466478,W,1,11,0.8,2073.546,M,-16.480,M,,*6E
Trace #1071 at position 1070.000000
$GPGGA,202805.00,4820.71437205,N,12103.05466369,W,1,11,0.8,2073.554,M,-16.480,M,,*6C
Trace #1081 at position 1080.000000
$GPGGA,202806.00,4820.71437004,N,12103.05466299,W,1,11,0.8,2073.557,M,-16.480,M,,*61
Trace #1091 at position 1090.000000
$GPGGA,202807.00,4820.71436819,N,12103.05466350,W,1,11,0.8,2073.556,M,-16.480,M,,*60
Trace #1101 at position 1100.000000
$GPGGA,202809.00,4820.71436852,N,12103.05465496,W,1,11,0.8,2073.568,M,-16.480,M,,*62
Trace #1111 at position 1110.000000
$GPGGA,202810.00,4820.71436719,N,12103.05465091,W,1,11,0.8,2073.555,M,-16.480,M,,*67
Trace #1121 at position 1120.000000
$GPGGA,202812.00,4820.71436432,N,12103.05464503,W,1,11,0.8,2073.550,M,-16.480,M,,*65
Trace #1131 at position 1130.000000
$GPGGA,202813.00,4820.71436244,N,12103.05464256,W,1,11,0.8,2073.552,M,-16.480,M,,*66
Trace #1141 at position 1140.000000
$GPGGA,202814.00,4820.71436261,N,12103.05463936,W,1,11,0.8,2073.564,M,-16.480,M,,*69
Trace #1151 at position 1150.000000
$GPGGA,202816.00,4820.71436062,N,12103.05463746,W,1,11,0.8,2073.577,M,-16.480,M,,*61
Trace #1161 at position 1160.000000
$GPGGA,202817.00,4820.71435923,N,12103.05463504,W,1,11,0.8,2073.583,M,-16.480,M,,*60
Trace #1171 at position 1170.000000
$GPGGA,202819.00,4820.71435564,N,12103.05463192,W,1,11,0.8,2073.584,M,-16.480,M,,*6D
Trace #1181 at position 1180.000000
$GPGGA,202820.00,4820.71435143,N,12103.05463139,W,1,11,0.8,2073.589,M,-16.480,M,,*6A
Trace #1191 at position 1190.000000
$GPGGA,202821.00,4820.71435390,N,12103.05462823,W,1,11,0.8,2073.605,M,-16.480,M,,*63
Trace #1201 at position 1200.000000
$GPGGA,202823.00,4820.71435070,N,12103.05463076,W,1,11,0.8,2073.613,M,-16.480,M,,*62
Trace #1211 at position 1210.000000
$GPGGA,202824.00,4820.71434689,N,12103.05463265,W,1,11,0.8,2073.623,M,-16.480,M,,*67
Trace #1221 at position 1220.000000
$GPGGA,202826.00,4820.71434638,N,12103.05463200,W,1,11,0.8,2073.631,M,-16.480,M,,*6F
Trace #1231 at position 1230.000000
$GPGGA,202827.00,4820.71434550,N,12103.05463378,W,1,11,0.8,2073.624,M,-16.480,M,,*69
Trace #1241 at position 1240.000000
$GPGGA,202829.00,4820.71434348,N,12103.05463800,W,1,11,0.8,2073.613,M,-16.480,M,,*68
Trace #1251 at position 1250.000000
$GPGGA,202830.00,4820.71434519,N,12103.05464150,W,1,11,0.8,2073.619,M,-16.480,M,,*63
Trace #1261 at position 1260.000000
$GPGGA,202831.00,4820.71434495,N,12103.05464238,W,1,11,0.8,2073.618,M,-16.480,M,,*6B
Trace #1271 at position 1270.000000
$GPGGA,202833.00,4820.71434315,N,12103.05464509,W,1,11,0.8,2073.630,M,-16.480,M,,*69
Trace #1281 at position 1280.000000
$GPGGA,202834.00,4820.71434111,N,12103.05464467,W,1,11,0.8,2073.631,M,-16.480,M,,*60
Trace #1291 at position 1290.000000
$GPGGA,202836.00,4820.71434053,N,12103.05465133,W,1,11,0.8,2073.626,M,-16.480,M,,*66
Trace #1301 at position 1300.000000
$GPGGA,202837.00,4820.71434010,N,12103.05465104,W,1,11,0.8,2073.628,M,-16.480,M,,*6A
Trace #1311 at position 1310.000000
$GPGGA,202838.00,4820.71433926,N,12103.05465736,W,1,11,0.8,2073.612,M,-16.480,M,,*60
Trace #1321 at position 1320.000000
$GPGGA,202840.00,4820.71435815,N,12103.05467538,W,1,11,0.8,2073.615,M,-16.480,M,,*61
Trace #1331 at position 1330.000000
$GPGGA,202841.00,4820.71436027,N,12103.05467085,W,1,11,0.8,2073.625,M,-16.480,M,,*6A
Trace #1341 at position 1340.000000
$GPGGA,202843.00,4820.71436505,N,12103.05467504,W,1,11,0.8,2073.637,M,-16.480,M,,*62
Trace #1351 at position 1350.000000
$GPGGA,202844.00,4820.71435528,N,12103.05463393,W,1,10,0.8,2073.519,M,-16.480,M,,*6B
Trace #1361 at position 1360.000000
$GPGGA,202845.00,4820.71435526,N,12103.05463321,W,1,10,0.8,2073.519,M,-16.480,M,,*6D
Trace #1371 at position 1370.000000
$GPGGA,202847.00,4820.71435548,N,12103.05463288,W,1,10,0.8,2073.505,M,-16.480,M,,*68
Trace #1381 at position 1380.000000
$GPGGA,202848.00,4820.71435548,N,12103.05462819,W,1,10,0.8,2073.496,M,-16.480,M,,*6F
Trace #1391 at position 1390.000000
$GPGGA,202850.00,4820.71435587,N,12103.05462994,W,1,10,0.8,2073.492,M,-16.480,M,,*65
Trace #1401 at position 1400.000000
$GPGGA,202851.00,4820.71435522,N,12103.05463032,W,1,10,0.8,2073.497,M,-16.480,M,,*6A
Trace #1411 at position 1410.000000
$GPGGA,202852.00,4820.71435498,N,12103.05462672,W,1,10,0.8,2073.500,M,-16.480,M,,*65
Trace #1421 at position 1420.000000
$GPGGA,202854.00,4820.71435282,N,12103.05462370,W,1,10,0.8,2073.489,M,-16.480,M,,*69
Trace #1431 at position 1430.000000
$GPGGA,202855.00,4820.71435276,N,12103.05462543,W,1,10,0.8,2073.488,M,-16.480,M,,*64
Trace #1441 at position 1440.000000
$GPGGA,202857.00,4820.71434954,N,12103.05461369,W,1,10,0.8,2073.475,M,-16.480,M,,*63
Trace #1451 at position 1450.000000
$GPGGA,202858.00,4820.71434677,N,12103.05461303,W,1,10,0.8,2073.475,M,-16.480,M,,*6E
Trace #1461 at position 1460.000000
$GPGGA,202859.00,4820.71434635,N,12103.05460837,W,1,10,0.8,2073.473,M,-16.480,M,,*62
Trace #1471 at position 1470.000000
$GPGGA,202901.00,4820.71434327,N,12103.05460193,W,1,10,0.8,2073.457,M,-16.480,M,,*69
Trace #1481 at position 1480.000000
$GPGGA,202902.00,4820.71434559,N,12103.05459979,W,1,11,0.8,2073.469,M,-16.480,M,,*6F
Trace #1491 at position 1490.000000
$GPGGA,202904.00,4820.71434912,N,12103.05462542,W,1,11,0.8,2073.579,M,-16.480,M,,*66
Trace #1501 at position 1500.000000
$GPGGA,202905.00,4820.71435042,N,12103.05462532,W,1,11,0.8,2073.598,M,-16.480,M,,*62
Trace #1511 at position 1510.000000
$GPGGA,202907.00,4820.71451234,N,12103.05481069,W,1,10,0.9,2073.764,M,-16.480,M,,*66
Trace #1521 at position 1520.000000
$GPGGA,202908.00,4820.71451366,N,12103.05480839,W,1,10,0.9,2073.777,M,-16.480,M,,*61
Trace #1531 at position 1530.000000
$GPGGA,202909.00,4820.71451090,N,12103.05480012,W,1,10,0.9,2073.774,M,-16.480,M,,*68
Trace #1541 at position 1540.000000
$GPGGA,202911.00,4820.71450463,N,12103.05478904,W,1,10,0.9,2073.793,M,-16.480,M,,*68
Trace #1551 at position 1550.000000
$GPGGA,202912.00,4820.71450161,N,12103.05478338,W,1,10,0.9,2073.801,M,-16.480,M,,*6D
Trace #1561 at position 1560.000000
$GPGGA,202914.00,4820.71449585,N,12103.05477860,W,1,10,0.9,2073.832,M,-16.480,M,,*64
Trace #1571 at position 1570.000000
$GPGGA,202915.00,4820.71449620,N,12103.05477124,W,1,10,0.9,2073.846,M,-16.480,M,,*63
Trace #1581 at position 1580.000000
$GPGGA,202916.00,4820.71449440,N,12103.05476830,W,1,10,0.9,2073.849,M,-16.480,M,,*66
Trace #1591 at position 1590.000000
$GPGGA,202918.00,4820.71449020,N,12103.05476791,W,1,10,0.9,2073.860,M,-16.480,M,,*65
Trace #1601 at position 1600.000000
$GPGGA,202919.00,4820.71448780,N,12103.05476469,W,1,10,0.9,2073.878,M,-16.480,M,,*65
Trace #1611 at position 1610.000000
$GPGGA,202921.00,4820.71448680,N,12103.05475680,W,1,10,0.9,2073.894,M,-16.480,M,,*6B
Trace #1621 at position 1620.000000
$GPGGA,202922.00,4820.71448519,N,12103.05475515,W,1,10,0.9,2073.897,M,-16.480,M,,*67
Trace #1631 at position 1630.000000
$GPGGA,202923.00,4820.71448510,N,12103.05475056,W,1,10,0.9,2073.912,M,-16.480,M,,*61
Trace #1641 at position 1640.000000
$GPGGA,202925.00,4820.71447277,N,12103.05474021,W,1,11,0.8,2073.893,M,-16.480,M,,*67
Trace #1651 at position 1650.000000
$GPGGA,202926.00,4820.71435283,N,12103.05461519,W,1,11,0.8,2073.797,M,-16.480,M,,*6B
Trace #1661 at position 1660.000000
$GPGGA,202928.00,4820.71429853,N,12103.05456562,W,1,11,0.8,2073.749,M,-16.480,M,,*64
Trace #1671 at position 1670.000000
$GPGGA,202929.00,4820.71422968,N,12103.05445850,W,1,10,0.8,2073.563,M,-16.480,M,,*62
Trace #1681 at position 1680.000000
$GPGGA,202930.00,4820.71424014,N,12103.05447295,W,1,10,0.8,2073.565,M,-16.480,M,,*69
Trace #1691 at position 1690.000000
$GPGGA,202932.00,4820.71420045,N,12103.05443986,W,1,10,0.8,2073.601,M,-16.480,M,,*67
Trace #1701 at position 1700.000000
$GPGGA,202933.00,4820.71415422,N,12103.05436974,W,1,09,0.9,2073.632,M,-16.480,M,,*63
Trace #1711 at position 1710.000000
$GPGGA,202935.00,4820.71381807,N,12103.05440805,W,1,08,1.0,2073.138,M,-16.480,M,,*66
Trace #1721 at position 1720.000000
$GPGGA,202936.00,4820.71363573,N,12103.05447800,W,1,09,1.0,2073.191,M,-16.480,M,,*67
Trace #1731 at position 1730.000000
$GPGGA,202938.00,4820.71341420,N,12103.05485522,W,1,09,1.0,2073.418,M,-16.480,M,,*69
Trace #1741 at position 1740.000000
$GPGGA,202939.00,4820.71330071,N,12103.05495316,W,1,09,1.0,2073.411,M,-16.480,M,,*67
Trace #1751 at position 1750.000000
$GPGGA,202940.00,4820.71327333,N,12103.05497385,W,1,09,1.0,2073.438,M,-16.480,M,,*69
Trace #1761 at position 1760.000000
$GPGGA,202942.00,4820.71307121,N,12103.05521409,W,1,09,1.0,2073.431,M,-16.480,M,,*6E
Trace #1771 at position 1770.000000
$GPGGA,202943.00,4820.71301832,N,12103.05536726,W,1,09,1.0,2073.437,M,-16.480,M,,*6C
Trace #1781 at position 1780.000000
$GPGGA,202945.00,4820.71296770,N,12103.05587515,W,1,09,1.0,2073.383,M,-16.480,M,,*6C
Trace #1791 at position 1790.000000
$GPGGA,202946.00,4820.71297823,N,12103.05600653,W,1,09,1.0,2073.371,M,-16.480,M,,*67
Trace #1801 at position 1800.000000
$GPGGA,202947.00,4820.71301807,N,12103.05619128,W,1,09,1.0,2073.373,M,-16.480,M,,*6F
Trace #1811 at position 1810.000000
$GPGGA,202949.00,4820.71319910,N,12103.05662658,W,1,09,1.0,2073.352,M,-16.480,M,,*60
Trace #1821 at position 1820.000000
$GPGGA,202950.00,4820.71328681,N,12103.05667582,W,1,11,0.8,2073.427,M,-16.480,M,,*69
Trace #1831 at position 1830.000000
$GPGGA,202952.00,4820.71328517,N,12103.05669831,W,1,11,0.8,2073.428,M,-16.480,M,,*63
Trace #1841 at position 1840.000000
$GPGGA,202953.00,4820.71349523,N,12103.05651649,W,1,11,0.8,2073.879,M,-16.480,M,,*60
Trace #1851 at position 1850.000000
$GPGGA,202954.00,4820.71349755,N,12103.05651976,W,1,11,0.8,2073.858,M,-16.480,M,,*64
Trace #1861 at position 1860.000000
$GPGGA,202956.00,4820.71349490,N,12103.05652765,W,1,11,0.8,2073.848,M,-16.480,M,,*62
Trace #1871 at position 1870.000000
$GPGGA,202957.00,4820.71351765,N,12103.05656124,W,1,11,0.8,2073.854,M,-16.480,M,,*69
Trace #1881 at position 1880.000000
$GPGGA,202959.00,4820.71372305,N,12103.05690223,W,1,11,0.8,2073.752,M,-16.480,M,,*63
Trace #1891 at position 1890.000000
$GPGGA,203000.00,4820.71383955,N,12103.05707237,W,1,11,0.8,2073.696,M,-16.480,M,,*65
Trace #1901 at position 1900.000000
$GPGGA,203001.00,4820.71411607,N,12103.05723663,W,1,11,0.8,2073.593,M,-16.480,M,,*65
Trace #1911 at position 1910.000000
$GPGGA,203003.00,4820.71453439,N,12103.05742768,W,1,11,0.8,2073.442,M,-16.480,M,,*6E
Trace #1921 at position 1920.000000
$GPGGA,203004.00,4820.71474954,N,12103.05754674,W,1,11,0.8,2073.356,M,-16.480,M,,*63
Trace #1931 at position 1930.000000
$GPGGA,203006.00,4820.71509854,N,12103.05764382,W,1,11,0.8,2073.268,M,-16.480,M,,*68
Trace #1941 at position 1940.000000
$GPGGA,203007.00,4820.71522125,N,12103.05766916,W,1,11,0.8,2073.236,M,-16.480,M,,*61
Trace #1951 at position 1950.000000
$GPGGA,203009.00,4820.71563471,N,12103.05770349,W,1,11,0.8,2073.117,M,-16.480,M,,*69
Trace #1961 at position 1960.000000
$GPGGA,203010.00,4820.71596283,N,12103.05773591,W,1,11,0.8,2073.025,M,-16.480,M,,*60
Trace #1971 at position 1970.000000
$GPGGA,203011.00,4820.71622877,N,12103.05776710,W,1,11,0.8,2072.936,M,-16.480,M,,*68
Trace #1981 at position 1980.000000
$GPGGA,203013.00,4820.71683809,N,12103.05784360,W,1,11,0.8,2072.761,M,-16.480,M,,*6A
Trace #1991 at position 1990.000000
$GPGGA,203014.00,4820.71717170,N,12103.05790404,W,1,11,0.8,2072.675,M,-16.480,M,,*62
Trace #2001 at position 2000.000000
$GPGGA,203016.00,4820.71813321,N,12103.05808771,W,1,10,0.8,2072.313,M,-16.480,M,,*66
Trace #2011 at position 2010.000000
$GPGGA,203017.00,4820.71856265,N,12103.05822609,W,1,10,0.8,2072.111,M,-16.480,M,,*61
Trace #2021 at position 2020.000000
$GPGGA,203018.00,4820.71889284,N,12103.05835419,W,1,10,0.8,2071.988,M,-16.480,M,,*6D
Trace #2031 at position 2030.000000
$GPGGA,203020.00,4820.71977664,N,12103.05875652,W,1,10,0.8,2071.628,M,-16.480,M,,*60
Trace #2041 at position 2040.000000
$GPGGA,203021.00,4820.72022214,N,12103.05896793,W,1,10,0.8,2071.437,M,-16.480,M,,*65
Trace #2051 at position 2050.000000
$GPGGA,203023.00,4820.72121162,N,12103.05944675,W,1,10,0.8,2071.057,M,-16.480,M,,*62
Trace #2061 at position 2060.000000
$GPGGA,203024.00,4820.72160947,N,12103.05965653,W,1,10,0.8,2070.882,M,-16.480,M,,*69
Trace #2071 at position 2070.000000
$GPGGA,203025.00,4820.72196551,N,12103.05983891,W,1,10,0.8,2070.729,M,-16.480,M,,*6C
Trace #2081 at position 2080.000000
$GPGGA,203027.00,4820.72270822,N,12103.06025223,W,1,10,0.8,2070.369,M,-16.480,M,,*69
Trace #2091 at position 2090.000000
$GPGGA,203028.00,4820.72309268,N,12103.06046785,W,1,10,0.8,2070.197,M,-16.480,M,,*62
Trace #2101 at position 2100.000000
$GPGGA,203030.00,4820.72407138,N,12103.06095449,W,1,10,0.8,2069.752,M,-16.480,M,,*6E
Trace #2111 at position 2110.000000
$GPGGA,203031.00,4820.72457414,N,12103.06123796,W,1,10,0.8,2069.507,M,-16.480,M,,*6E
Trace #2121 at position 2120.000000
$GPGGA,203033.00,4820.72510041,N,12103.06155386,W,1,10,0.8,2069.201,M,-16.480,M,,*6F
Trace #2131 at position 2130.000000
$GPGGA,203034.00,4820.72513206,N,12103.06157267,W,1,10,0.8,2069.201,M,-16.480,M,,*66
Trace #2141 at position 2140.000000
$GPGGA,203035.00,4820.72513810,N,12103.06157849,W,1,10,0.8,2069.215,M,-16.480,M,,*69
Trace #2151 at position 2150.000000
$GPGGA,203037.00,4820.72559760,N,12103.06182192,W,1,10,0.8,2068.983,M,-16.480,M,,*6F
Trace #2161 at position 2160.000000
$GPGGA,203038.00,4820.72592569,N,12103.06199743,W,1,10,0.8,2068.806,M,-16.480,M,,*60
Trace #2171 at position 2170.000000
$GPGGA,203040.00,4820.72667826,N,12103.06242966,W,1,10,0.8,2068.452,M,-16.480,M,,*61
Trace #2181 at position 2180.000000
$GPGGA,203041.00,4820.72720777,N,12103.06274642,W,1,10,0.8,2068.130,M,-16.480,M,,*64
Trace #2191 at position 2190.000000
$GPGGA,203042.00,4820.72789107,N,12103.06313803,W,1,10,0.8,2067.778,M,-16.480,M,,*6B
Trace #2201 at position 2200.000000
$GPGGA,203044.00,4820.72900462,N,12103.06414967,W,1,09,1.0,2066.502,M,-16.480,M,,*68
Trace #2211 at position 2210.000000
$GPGGA,203045.00,4820.72927722,N,12103.06440774,W,1,09,1.0,2066.379,M,-16.480,M,,*6C
Trace #2221 at position 2220.000000
$GPGGA,203047.00,4820.72939896,N,12103.06452683,W,1,09,1.0,2066.306,M,-16.480,M,,*63
Trace #2231 at position 2230.000000
$GPGGA,203048.00,4820.72940943,N,12103.06453421,W,1,09,1.0,2066.298,M,-16.480,M,,*66
Trace #2241 at position 2240.000000
$GPGGA,203049.00,4820.72942124,N,12103.06454815,W,1,09,1.0,2066.282,M,-16.480,M,,*6B
Trace #2251 at position 2250.000000
$GPGGA,203051.00,4820.72951180,N,12103.06464222,W,1,09,1.0,2066.206,M,-16.480,M,,*6F
Trace #2261 at position 2260.000000
$GPGGA,203052.00,4820.72953665,N,12103.06466517,W,1,09,1.0,2066.193,M,-16.480,M,,*6E
Trace #2271 at position 2270.000000
$GPGGA,203054.00,4820.72968598,N,12103.06481975,W,1,09,1.0,2066.138,M,-16.480,M,,*61
Trace #2281 at position 2280.000000
$GPGGA,203055.00,4820.72986338,N,12103.06499184,W,1,09,1.0,2066.086,M,-16.480,M,,*67
Trace #2291 at position 2290.000000
$GPGGA,203056.00,4820.73009923,N,12103.06524751,W,1,09,1.0,2065.949,M,-16.480,M,,*6B
Trace #2301 at position 2300.000000
$GPGGA,203058.00,4820.73062559,N,12103.06573600,W,1,09,1.0,2065.674,M,-16.480,M,,*6F
Trace #2311 at position 2310.000000
$GPGGA,203059.00,4820.73094113,N,12103.06610067,W,1,09,1.0,2065.504,M,-16.480,M,,*68
Trace #2321 at position 2320.000000
$GPGGA,203101.00,4820.73158594,N,12103.06673589,W,1,09,1.0,2065.117,M,-16.480,M,,*68
Trace #2331 at position 2330.000000
$GPGGA,203102.00,4820.73191041,N,12103.06708279,W,1,09,1.0,2064.928,M,-16.480,M,,*63
Trace #2341 at position 2340.000000
$GPGGA,203103.00,4820.73223976,N,12103.06750373,W,1,09,1.0,2064.746,M,-16.480,M,,*65
Trace #2351 at position 2350.000000
$GPGGA,203105.00,4820.73292462,N,12103.06830218,W,1,09,1.0,2064.367,M,-16.480,M,,*63
Trace #2361 at position 2360.000000
$GPGGA,203106.00,4820.73321701,N,12103.06863467,W,1,09,1.0,2064.233,M,-16.480,M,,*67
Trace #2371 at position 2370.000000
$GPGGA,203108.00,4820.73398019,N,12103.06954157,W,1,09,1.0,2063.806,M,-16.480,M,,*6D
Trace #2381 at position 2380.000000
$GPGGA,203109.00,4820.73437754,N,12103.06999504,W,1,09,1.0,2063.581,M,-16.480,M,,*61
Trace #2391 at position 2390.000000
$GPGGA,203111.00,4820.73508588,N,12103.07072698,W,1,09,1.0,2063.204,M,-16.480,M,,*67
Trace #2401 at position 2400.000000
$GPGGA,203112.00,4820.73537462,N,12103.07103132,W,1,09,1.0,2063.063,M,-16.480,M,,*6E
Trace #2411 at position 2410.000000
$GPGGA,203113.00,4820.73560496,N,12103.07131490,W,1,09,1.0,2062.931,M,-16.480,M,,*65
Trace #2421 at position 2420.000000
$GPGGA,203115.00,4820.73623916,N,12103.07209146,W,1,09,1.0,2062.662,M,-16.480,M,,*6D
Trace #2431 at position 2430.000000
$GPGGA,203116.00,4820.73660074,N,12103.07251613,W,1,09,1.0,2062.493,M,-16.480,M,,*62
Trace #2441 at position 2440.000000
$GPGGA,203118.00,4820.73735080,N,12103.07339934,W,1,09,1.0,2062.146,M,-16.480,M,,*6E
Trace #2451 at position 2450.000000
$GPGGA,203119.00,4820.73774731,N,12103.07386919,W,1,09,1.0,2061.934,M,-16.480,M,,*62
Trace #2461 at position 2460.000000
$GPGGA,203120.00,4820.73811589,N,12103.07423926,W,1,09,1.0,2061.771,M,-16.480,M,,*6E
Trace #2471 at position 2470.000000
$GPGGA,203122.00,4820.73880045,N,12103.07518289,W,1,09,1.0,2061.488,M,-16.480,M,,*63
Trace #2481 at position 2480.000000
$GPGGA,203123.00,4820.73912298,N,12103.07564580,W,1,09,1.0,2061.346,M,-16.480,M,,*6A
Trace #2491 at position 2490.000000
$GPGGA,203125.00,4820.73981954,N,12103.07662876,W,1,09,1.0,2061.098,M,-16.480,M,,*6C
Trace #2501 at position 2500.000000
$GPGGA,203126.00,4820.74014458,N,12103.07702332,W,1,09,1.0,2060.988,M,-16.480,M,,*69
Trace #2511 at position 2510.000000
$GPGGA,203127.00,4820.74039915,N,12103.07747365,W,1,09,1.0,2060.910,M,-16.480,M,,*61
Trace #2521 at position 2520.000000
$GPGGA,203129.00,4820.74096282,N,12103.07840874,W,1,09,1.0,2060.681,M,-16.480,M,,*6B
Trace #2531 at position 2530.000000
$GPGGA,203130.00,4820.74127603,N,12103.07889314,W,1,09,1.0,2060.581,M,-16.480,M,,*6E
Trace #2541 at position 2540.000000
$GPGGA,203132.00,4820.74184963,N,12103.07994027,W,1,09,1.0,2060.420,M,-16.480,M,,*68
Trace #2551 at position 2550.000000
$GPGGA,203133.00,4820.74212860,N,12103.08047758,W,1,09,1.0,2060.333,M,-16.480,M,,*65
Trace #2561 at position 2560.000000
$GPGGA,203134.00,4820.74240058,N,12103.08107358,W,1,09,1.0,2060.286,M,-16.480,M,,*68
Trace #2571 at position 2570.000000
$GPGGA,203136.00,4820.74283565,N,12103.08202494,W,1,09,1.0,2060.161,M,-16.480,M,,*65
Trace #2581 at position 2580.000000
$GPGGA,203137.00,4820.74304606,N,12103.08238946,W,1,09,1.0,2060.086,M,-16.480,M,,*6F
Trace #2591 at position 2590.000000
$GPGGA,203139.00,4820.74348354,N,12103.08334754,W,1,09,1.0,2059.992,M,-16.480,M,,*6D
Trace #2601 at position 2600.000000
$GPGGA,203140.00,4820.74369639,N,12103.08389967,W,1,09,1.0,2059.957,M,-16.480,M,,*6F
Trace #2611 at position 2610.000000
$GPGGA,203142.00,4820.74415630,N,12103.08498736,W,1,09,1.0,2059.870,M,-16.480,M,,*61
Trace #2621 at position 2620.000000
$GPGGA,203143.00,4820.74441869,N,12103.08561335,W,1,09,1.0,2059.829,M,-16.480,M,,*6F
Trace #2631 at position 2630.000000
$GPGGA,203144.00,4820.74464338,N,12103.08614490,W,1,09,1.0,2059.779,M,-16.480,M,,*63
Trace #2641 at position 2640.000000
$GPGGA,203146.00,4820.74519637,N,12103.08734354,W,1,09,1.0,2059.587,M,-16.480,M,,*6F
Trace #2651 at position 2650.000000
$GPGGA,203147.00,4820.74540068,N,12103.08799774,W,1,09,1.0,2059.515,M,-16.480,M,,*64
Trace #2661 at position 2660.000000
$GPGGA,203149.00,4820.74583084,N,12103.08916266,W,1,09,1.0,2059.439,M,-16.480,M,,*67
Trace #2671 at position 2670.000000
$GPGGA,203150.00,4820.74606324,N,12103.08979726,W,1,09,1.0,2059.381,M,-16.480,M,,*64
Trace #2681 at position 2680.000000
$GPGGA,203151.00,4820.74626777,N,12103.09038705,W,1,09,1.0,2059.352,M,-16.480,M,,*67
Trace #2691 at position 2690.000000
$GPGGA,203153.00,4820.74672809,N,12103.09154725,W,1,09,1.0,2059.258,M,-16.480,M,,*60
Trace #2701 at position 2700.000000
$GPGGA,203154.00,4820.74699909,N,12103.09215922,W,1,10,1.0,2059.164,M,-16.480,M,,*68
Trace #2711 at position 2710.000000
$GPGGA,203156.00,4820.74744996,N,12103.09340132,W,1,10,1.0,2059.050,M,-16.480,M,,*63
Trace #2721 at position 2720.000000
$GPGGA,203157.00,4820.74769416,N,12103.09399449,W,1,10,1.0,2058.969,M,-16.480,M,,*67
Trace #2731 at position 2730.000000
$GPGGA,203158.00,4820.74784972,N,12103.09462345,W,1,10,1.0,2058.916,M,-16.480,M,,*64
Trace #2741 at position 2740.000000
$GPGGA,203200.00,4820.74821778,N,12103.09576453,W,1,10,1.0,2058.883,M,-16.480,M,,*67
Trace #2751 at position 2750.000000
$GPGGA,203201.00,4820.74838376,N,12103.09642579,W,1,10,1.0,2058.872,M,-16.480,M,,*67
Trace #2761 at position 2760.000000
$GPGGA,203203.00,4820.74862443,N,12103.09771402,W,1,10,1.0,2058.887,M,-16.480,M,,*6D
Trace #2771 at position 2770.000000
$GPGGA,203204.00,4820.74875205,N,12103.09835839,W,1,10,1.0,2058.863,M,-16.480,M,,*69
Trace #2781 at position 2780.000000
$GPGGA,203205.00,4820.74891091,N,12103.09903795,W,1,10,1.0,2058.822,M,-16.480,M,,*65
Trace #2791 at position 2790.000000
$GPGGA,203207.00,4820.74920880,N,12103.10022838,W,1,10,1.0,2058.744,M,-16.480,M,,*61
Trace #2801 at position 2800.000000
$GPGGA,203208.00,4820.74937854,N,12103.10079535,W,1,10,1.0,2058.671,M,-16.480,M,,*68
Trace #2811 at position 2810.000000
$GPGGA,203210.00,4820.74970221,N,12103.10211921,W,1,10,1.0,2058.610,M,-16.480,M,,*68
Trace #2821 at position 2820.000000
$GPGGA,203211.00,4820.74986831,N,12103.10286325,W,1,10,1.0,2058.577,M,-16.480,M,,*69
Trace #2831 at position 2830.000000
$GPGGA,203212.00,4820.75007090,N,12103.10348657,W,1,10,1.0,2058.536,M,-16.480,M,,*6E
Trace #2841 at position 2840.000000
$GPGGA,203214.00,4820.75041120,N,12103.10477343,W,1,10,1.0,2058.450,M,-16.480,M,,*6A
Trace #2851 at position 2850.000000
$GPGGA,203215.00,4820.75051373,N,12103.10548229,W,1,10,1.0,2058.387,M,-16.480,M,,*63
Trace #2861 at position 2860.000000
$GPGGA,203217.00,4820.75080507,N,12103.10677850,W,1,10,1.0,2058.253,M,-16.480,M,,*6B
Trace #2871 at position 2870.000000
$GPGGA,203218.00,4820.75100092,N,12103.10743112,W,1,10,1.0,2058.186,M,-16.480,M,,*66
Trace #2881 at position 2880.000000
$GPGGA,203220.00,4820.75131851,N,12103.10880105,W,1,10,1.0,2058.062,M,-16.480,M,,*65
Trace #2891 at position 2890.000000
$GPGGA,203221.00,4820.75146845,N,12103.10944531,W,1,10,1.0,2058.015,M,-16.480,M,,*6B
Trace #2901 at position 2900.000000
$GPGGA,203222.00,4820.75162372,N,12103.11011540,W,1,10,1.0,2057.959,M,-16.480,M,,*61
Trace #2911 at position 2910.000000
$GPGGA,203224.00,4820.75191607,N,12103.11135091,W,1,10,1.0,2057.824,M,-16.480,M,,*69
Trace #2921 at position 2920.000000
$GPGGA,203225.00,4820.75207518,N,12103.11198964,W,1,10,1.0,2057.787,M,-16.480,M,,*6B
Trace #2931 at position 2930.000000
$GPGGA,203227.00,4820.75235431,N,12103.11341548,W,1,10,1.0,2057.679,M,-16.480,M,,*66
Trace #2941 at position 2940.000000
$GPGGA,203228.00,4820.75247473,N,12103.11415164,W,1,10,1.0,2057.608,M,-16.480,M,,*60
Trace #2951 at position 2950.000000
$GPGGA,203229.00,4820.75264565,N,12103.11483450,W,1,10,1.0,2057.574,M,-16.480,M,,*63
Trace #2961 at position 2960.000000
$GPGGA,203231.00,4820.75292244,N,12103.11611852,W,1,10,1.0,2057.496,M,-16.480,M,,*6D
Trace #2971 at position 2970.000000
$GPGGA,203232.00,4820.75303914,N,12103.11679945,W,1,10,1.0,2057.413,M,-16.480,M,,*6D
Trace #2981 at position 2980.000000
$GPGGA,203234.00,4820.75334583,N,12103.11809161,W,1,10,1.0,2057.240,M,-16.480,M,,*6A
Trace #2991 at position 2990.000000
$GPGGA,203235.00,4820.75349365,N,12103.11872571,W,1,10,1.0,2057.142,M,-16.480,M,,*67
Trace #3001 at position 3000.000000
$GPGGA,203236.00,4820.75364116,N,12103.11938290,W,1,10,1.0,2057.099,M,-16.480,M,,*6D
Trace #3011 at position 3010.000000
$GPGGA,203238.00,4820.75397741,N,12103.12068616,W,1,10,1.0,2056.897,M,-16.480,M,,*69
Trace #3021 at position 3020.000000
$GPGGA,203239.00,4820.75417418,N,12103.12138174,W,1,10,1.0,2056.811,M,-16.480,M,,*61
Trace #3031 at position 3030.000000
$GPGGA,203241.00,4820.75458441,N,12103.12265807,W,1,10,1.0,2056.617,M,-16.480,M,,*67
Trace #3041 at position 3040.000000
$GPGGA,203242.00,4820.75479795,N,12103.12328031,W,1,10,1.0,2056.528,M,-16.480,M,,*67
Trace #3051 at position 3050.000000
$GPGGA,203243.00,4820.75498494,N,12103.12394339,W,1,10,1.0,2056.404,M,-16.480,M,,*68
Trace #3061 at position 3060.000000
$GPGGA,203245.00,4820.75541176,N,12103.12536638,W,1,10,1.0,2056.142,M,-16.480,M,,*6F
Trace #3071 at position 3070.000000
$GPGGA,203246.00,4820.75563588,N,12103.12604250,W,1,10,1.0,2056.089,M,-16.480,M,,*67
Trace #3081 at position 3080.000000
$GPGGA,203248.00,4820.75607872,N,12103.12738126,W,1,10,1.0,2055.879,M,-16.480,M,,*68
Trace #3091 at position 3090.000000
$GPGGA,203249.00,4820.75628195,N,12103.12802696,W,1,10,1.0,2055.818,M,-16.480,M,,*69
Trace #3101 at position 3100.000000
$GPGGA,203251.00,4820.75672801,N,12103.12938507,W,1,10,1.0,2055.625,M,-16.480,M,,*68
Trace #3111 at position 3110.000000
$GPGGA,203252.00,4820.75694502,N,12103.13008729,W,1,10,1.0,2055.495,M,-16.480,M,,*61
Trace #3121 at position 3120.000000
$GPGGA,203253.00,4820.75718577,N,12103.13076769,W,1,10,1.0,2055.386,M,-16.480,M,,*6F
Trace #3131 at position 3130.000000
$GPGGA,203255.00,4820.75767350,N,12103.13213698,W,1,10,1.0,2055.178,M,-16.480,M,,*6F
Trace #3141 at position 3140.000000
$GPGGA,203256.00,4820.75787791,N,12103.13290808,W,1,10,1.0,2055.069,M,-16.480,M,,*66
Trace #3151 at position 3150.000000
$GPGGA,203258.00,4820.75829028,N,12103.13433977,W,1,10,1.0,2054.882,M,-16.480,M,,*6C
Trace #3161 at position 3160.000000
$GPGGA,203259.00,4820.75852976,N,12103.13506498,W,1,10,1.0,2054.784,M,-16.480,M,,*61
Trace #3171 at position 3170.000000
$GPGGA,203300.00,4820.75870613,N,12103.13584710,W,1,10,1.0,2054.719,M,-16.480,M,,*6D
Trace #3181 at position 3180.000000
$GPGGA,203302.00,4820.75909488,N,12103.13728704,W,1,10,1.0,2054.581,M,-16.480,M,,*62
Trace #3191 at position 3190.000000
$GPGGA,203303.00,4820.75929772,N,12103.13793479,W,1,10,1.0,2054.526,M,-16.480,M,,*63
Trace #3201 at position 3200.000000
$GPGGA,203305.00,4820.75965663,N,12103.13912987,W,1,10,1.0,2054.419,M,-16.480,M,,*6A
Trace #3211 at position 3210.000000
$GPGGA,203306.00,4820.75979497,N,12103.13981613,W,1,10,1.0,2054.399,M,-16.480,M,,*6A
Trace #3221 at position 3220.000000
$GPGGA,203307.00,4820.76000880,N,12103.14047207,W,1,10,1.0,2054.360,M,-16.480,M,,*66
Trace #3231 at position 3230.000000
$GPGGA,203309.00,4820.76035055,N,12103.14172294,W,1,10,1.0,2054.325,M,-16.480,M,,*62
Trace #3241 at position 3240.000000
$GPGGA,203310.00,4820.76046868,N,12103.14238358,W,1,10,1.0,2054.347,M,-16.480,M,,*60
Trace #3251 at position 3250.000000
$GPGGA,203312.00,4820.76079704,N,12103.14364758,W,1,10,1.0,2054.336,M,-16.480,M,,*61
Trace #3261 at position 3260.000000
$GPGGA,203313.00,4820.76094412,N,12103.14432798,W,1,10,1.0,2054.371,M,-16.480,M,,*6C
Trace #3271 at position 3270.000000
$GPGGA,203314.00,4820.76103717,N,12103.14491530,W,1,10,1.0,2054.401,M,-16.480,M,,*6B
Trace #3281 at position 3280.000000
$GPGGA,203316.00,4820.76130961,N,12103.14617113,W,1,10,1.0,2054.437,M,-16.480,M,,*6A
Trace #3291 at position 3290.000000
$GPGGA,203317.00,4820.76148921,N,12103.14687284,W,1,10,1.0,2054.444,M,-16.480,M,,*60
Trace #3301 at position 3300.000000
$GPGGA,203319.00,4820.76193771,N,12103.14821477,W,1,10,1.0,2054.429,M,-16.480,M,,*60
Trace #3311 at position 3310.000000
$GPGGA,203320.00,4820.76210400,N,12103.14889869,W,1,10,1.0,2054.392,M,-16.480,M,,*61
Trace #3321 at position 3320.000000
$GPGGA,203321.00,4820.76224403,N,12103.14956670,W,1,10,1.0,2054.386,M,-16.480,M,,*64
Trace #3331 at position 3330.000000
$GPGGA,203323.00,4820.76257892,N,12103.15081995,W,1,10,1.0,2054.306,M,-16.480,M,,*68
Trace #3341 at position 3340.000000
$GPGGA,203324.00,4820.76277002,N,12103.15139640,W,1,10,1.0,2054.275,M,-16.480,M,,*6C
Trace #3351 at position 3350.000000
$GPGGA,203326.00,4820.76313622,N,12103.15273916,W,1,10,1.0,2054.193,M,-16.480,M,,*63
Trace #3361 at position 3360.000000
$GPGGA,203327.00,4820.76332211,N,12103.15345559,W,1,10,1.0,2054.179,M,-16.480,M,,*62
Trace #3371 at position 3370.000000
$GPGGA,203329.00,4820.76364830,N,12103.15492789,W,1,10,1.0,2054.002,M,-16.480,M,,*69
Trace #3381 at position 3380.000000
$GPGGA,203330.00,4820.76382043,N,12103.15555830,W,1,10,1.0,2053.928,M,-16.480,M,,*64
Trace #3391 at position 3390.000000
$GPGGA,203331.00,4820.76403811,N,12103.15618244,W,1,10,1.0,2053.857,M,-16.480,M,,*6E
Trace #3401 at position 3400.000000
$GPGGA,203333.00,4820.76447820,N,12103.15756780,W,1,10,1.0,2053.712,M,-16.480,M,,*66
Trace #3411 at position 3410.000000
$GPGGA,203334.00,4820.76470083,N,12103.15825847,W,1,10,1.0,2053.659,M,-16.480,M,,*65
Trace #3421 at position 3420.000000
$GPGGA,203336.00,4820.76515550,N,12103.15967391,W,1,10,1.0,2053.559,M,-16.480,M,,*6A
Trace #3431 at position 3430.000000
$GPGGA,203337.00,4820.76532692,N,12103.16028827,W,1,10,1.0,2053.505,M,-16.480,M,,*6D
Trace #3441 at position 3440.000000
$GPGGA,203338.00,4820.76556769,N,12103.16102525,W,1,10,1.0,2053.500,M,-16.480,M,,*66
Trace #3451 at position 3450.000000
$GPGGA,203340.00,4820.76597173,N,12103.16226473,W,1,10,1.0,2053.372,M,-16.480,M,,*6D
Trace #3461 at position 3460.000000
$GPGGA,203341.00,4820.76617094,N,12103.16308275,W,1,10,1.0,2053.351,M,-16.480,M,,*63
Trace #3471 at position 3470.000000
$GPGGA,203343.00,4820.76662035,N,12103.16455163,W,1,10,1.0,2053.242,M,-16.480,M,,*60
Trace #3481 at position 3480.000000
$GPGGA,203344.00,4820.76682338,N,12103.16528044,W,1,10,1.0,2053.151,M,-16.480,M,,*69
Trace #3491 at position 3490.000000
$GPGGA,203345.00,4820.76707910,N,12103.16604792,W,1,10,1.0,2053.043,M,-16.480,M,,*67
Trace #3501 at position 3500.000000
$GPGGA,203347.00,4820.76750766,N,12103.16755069,W,1,10,1.0,2052.879,M,-16.480,M,,*6E
Trace #3511 at position 3510.000000
$GPGGA,203348.00,4820.76768718,N,12103.16839521,W,1,10,1.0,2052.813,M,-16.480,M,,*63
Trace #3521 at position 3520.000000
$GPGGA,203350.00,4820.76813317,N,12103.16990705,W,1,10,1.0,2052.660,M,-16.480,M,,*6E
Trace #3531 at position 3530.000000
$GPGGA,203351.00,4820.76830450,N,12103.17065656,W,1,10,1.0,2052.584,M,-16.480,M,,*66
Trace #3541 at position 3540.000000
$GPGGA,203352.00,4820.76847601,N,12103.17135640,W,1,10,1.0,2052.549,M,-16.480,M,,*61
Trace #3551 at position 3550.000000
$GPGGA,203354.00,4820.76887463,N,12103.17290393,W,1,10,1.0,2052.439,M,-16.480,M,,*6C
Trace #3561 at position 3560.000000
$GPGGA,203355.00,4820.76906598,N,12103.17372460,W,1,10,1.0,2052.366,M,-16.480,M,,*6B
Trace #3571 at position 3570.000000
$GPGGA,203357.00,4820.76936453,N,12103.17480541,W,1,10,1.0,2052.234,M,-16.480,M,,*62
Trace #3581 at position 3580.000000
$GPGGA,203358.00,4820.76939522,N,12103.17496326,W,1,10,1.0,2052.168,M,-16.480,M,,*6F
Trace #3591 at position 3590.000000
$GPGGA,203400.00,4820.76939685,N,12103.17495820,W,1,10,1.0,2052.150,M,-16.480,M,,*6E
Trace #3601 at position 3600.000000
$GPGGA,203401.00,4820.76939584,N,12103.17495665,W,1,10,1.0,2052.150,M,-16.480,M,,*62
Trace #3611 at position 3610.000000
$GPGGA,203402.00,4820.76939675,N,12103.17495436,W,1,10,1.0,2052.145,M,-16.480,M,,*6C
Trace #3621 at position 3620.000000
$GPGGA,203404.00,4820.76939699,N,12103.17495361,W,1,10,1.0,2052.142,M,-16.480,M,,*6A
Trace #3631 at position 3630.000000
$GPGGA,203405.00,4820.76939392,N,12103.17495386,W,1,10,1.0,2052.153,M,-16.480,M,,*6C
Trace #3641 at position 3640.000000
$GPGGA,203407.00,4820.76939457,N,12103.17495276,W,1,10,1.0,2052.172,M,-16.480,M,,*6D
Trace #3651 at position 3650.000000
$GPGGA,203408.00,4820.76939296,N,12103.17495525,W,1,10,1.0,2052.148,M,-16.480,M,,*61
Trace #3661 at position 3660.000000
$GPGGA,203409.00,4820.76939616,N,12103.17495541,W,1,10,1.0,2052.157,M,-16.480,M,,*60
Trace #3671 at position 3670.000000
$GPGGA,203411.00,4820.76940276,N,12103.17495180,W,1,10,1.0,2052.161,M,-16.480,M,,*69
Trace #3681 at position 3680.000000
$GPGGA,203412.00,4820.76940450,N,12103.17495181,W,1,10,1.0,2052.164,M,-16.480,M,,*6C
Trace #3691 at position 3690.000000
$GPGGA,203414.00,4820.76940426,N,12103.17495471,W,1,10,1.0,2052.148,M,-16.480,M,,*6F
Trace #3701 at position 3700.000000
$GPGGA,203415.00,4820.76940510,N,12103.17495567,W,1,10,1.0,2052.154,M,-16.480,M,,*61
Trace #3711 at position 3710.000000
$GPGGA,203416.00,4820.76940846,N,12103.17495423,W,1,10,1.0,2052.154,M,-16.480,M,,*6D
Trace #3721 at position 3720.000000
$GPGGA,203418.00,4820.76944065,N,12103.17506106,W,1,10,1.0,2052.122,M,-16.480,M,,*66
Trace #3731 at position 3730.000000
$GPGGA,203419.00,4820.76948912,N,12103.17522646,W,1,10,1.0,2052.097,M,-16.480,M,,*68
Trace #3741 at position 3740.000000
$GPGGA,203421.00,4820.76959075,N,12103.17555267,W,1,10,1.0,2052.046,M,-16.480,M,,*60
Trace #3751 at position 3750.000000
$GPGGA,203422.00,4820.76968460,N,12103.17577900,W,1,10,1.0,2052.006,M,-16.480,M,,*6F
Trace #3761 at position 3760.000000
$GPGGA,203423.00,4820.76984232,N,12103.17607372,W,1,10,1.0,2051.972,M,-16.480,M,,*6F
Trace #3771 at position 3770.000000
$GPGGA,203425.00,4820.77028194,N,12103.17670654,W,1,10,1.0,2051.746,M,-16.480,M,,*60
Trace #3781 at position 3780.000000
$GPGGA,203426.00,4820.77079221,N,12103.17708905,W,1,09,1.1,2051.213,M,-16.480,M,,*63
Trace #3791 at position 3790.000000
$GPGGA,203428.00,4820.77197203,N,12103.17791703,W,1,09,1.1,2050.508,M,-16.480,M,,*68
Trace #3801 at position 3800.000000
$GPGGA,203429.00,4820.77272110,N,12103.17820857,W,1,09,1.1,2050.038,M,-16.480,M,,*6D
Trace #3811 at position 3810.000000
$GPGGA,203431.00,4820.77424182,N,12103.17842943,W,1,09,1.1,2049.150,M,-16.480,M,,*6D
Trace #3821 at position 3820.000000
$GPGGA,203432.00,4820.77496607,N,12103.17859574,W,1,09,1.1,2048.670,M,-16.480,M,,*6B
Trace #3831 at position 3830.000000
$GPGGA,203433.00,4820.77558848,N,12103.17848082,W,1,09,1.1,2048.271,M,-16.480,M,,*65
Trace #3841 at position 3840.000000
$GPGGA,203435.00,4820.77702140,N,12103.17782076,W,1,09,1.1,2047.451,M,-16.480,M,,*66
Trace #3851 at position 3850.000000
$GPGGA,203436.00,4820.77793889,N,12103.17730304,W,1,09,1.1,2046.884,M,-16.480,M,,*6B
Trace #3861 at position 3860.000000
$GPGGA,203438.00,4820.77996146,N,12103.17607271,W,1,09,1.1,2045.765,M,-16.480,M,,*61
Trace #3871 at position 3870.000000
$GPGGA,203439.00,4820.78116419,N,12103.17533303,W,1,09,1.1,2045.031,M,-16.480,M,,*66
Trace #3881 at position 3880.000000
$GPGGA,203440.00,4820.78245712,N,12103.17459713,W,1,09,1.1,2044.258,M,-16.480,M,,*61
Trace #3891 at position 3890.000000
$GPGGA,203442.00,4820.78516631,N,12103.17308125,W,1,09,1.1,2042.697,M,-16.480,M,,*63
Trace #3901 at position 3900.000000
$GPGGA,203443.00,4820.78646432,N,12103.17224946,W,1,09,1.1,2041.959,M,-16.480,M,,*69
Trace #3911 at position 3910.000000
$GPGGA,203445.00,4820.78883903,N,12103.17095710,W,1,09,1.1,2040.765,M,-16.480,M,,*62
Trace #3921 at position 3920.000000
$GPGGA,203446.00,4820.78997774,N,12103.17028256,W,1,09,1.1,2040.196,M,-16.480,M,,*60
Trace #3931 at position 3930.000000
$GPGGA,203447.00,4820.79103021,N,12103.16967939,W,1,09,1.1,2039.670,M,-16.480,M,,*62
Trace #3941 at position 3940.000000
$GPGGA,203449.00,4820.79291459,N,12103.16856140,W,1,09,1.1,2038.820,M,-16.480,M,,*60
Trace #3951 at position 3950.000000
$GPGGA,203450.00,4820.79383797,N,12103.16798687,W,1,09,1.1,2038.413,M,-16.480,M,,*66
Trace #3961 at position 3960.000000
$GPGGA,203452.00,4820.79586215,N,12103.16687399,W,1,09,1.1,2037.501,M,-16.480,M,,*60
Trace #3971 at position 3970.000000
$GPGGA,203453.00,4820.79688819,N,12103.16631611,W,1,09,1.1,2037.133,M,-16.480,M,,*67
Trace #3981 at position 3980.000000
$GPGGA,203454.00,4820.79787539,N,12103.16577315,W,1,09,1.1,2036.689,M,-16.480,M,,*66
Trace #3991 at position 3990.000000
$GPGGA,203456.00,4820.79989397,N,12103.16466314,W,1,09,1.1,2035.818,M,-16.480,M,,*63
Trace #4001 at position 4000.000000
$GPGGA,203457.00,4820.80082340,N,12103.16408540,W,1,09,1.1,2035.455,M,-16.480,M,,*66
Trace #4011 at position 4010.000000
$GPGGA,203459.00,4820.80276189,N,12103.16290157,W,1,09,1.1,2034.715,M,-16.480,M,,*65
Trace #4021 at position 4020.000000
$GPGGA,203500.00,4820.80369684,N,12103.16229856,W,1,09,1.1,2034.372,M,-16.480,M,,*62
Trace #4031 at position 4030.000000
$GPGGA,203501.00,4820.80462254,N,12103.16175435,W,1,09,1.1,2034.022,M,-16.480,M,,*63
Trace #4041 at position 4040.000000
$GPGGA,203503.00,4820.80637809,N,12103.16072491,W,1,09,1.1,2033.428,M,-16.480,M,,*60
Trace #4051 at position 4050.000000
$GPGGA,203504.00,4820.80714352,N,12103.16026263,W,1,09,1.1,2033.131,M,-16.480,M,,*65
Trace #4061 at position 4060.000000
$GPGGA,203506.00,4820.80850045,N,12103.15944198,W,1,09,1.1,2032.721,M,-16.480,M,,*62
Trace #4071 at position 4070.000000
$GPGGA,203507.00,4820.80921024,N,12103.15902488,W,1,09,1.1,2032.518,M,-16.480,M,,*6D
Trace #4081 at position 4080.000000
$GPGGA,203509.00,4820.81066514,N,12103.15811735,W,1,09,1.1,2032.137,M,-16.480,M,,*61
Trace #4091 at position 4090.000000
$GPGGA,203510.00,4820.81135598,N,12103.15765517,W,1,09,1.1,2031.964,M,-16.480,M,,*69
Trace #4101 at position 4100.000000
$GPGGA,203511.00,4820.81203872,N,12103.15724547,W,1,09,1.1,2031.821,M,-16.480,M,,*67
Trace #4111 at position 4110.000000
$GPGGA,203513.00,4820.81341164,N,12103.15640582,W,1,09,1.1,2031.487,M,-16.480,M,,*66
Trace #4121 at position 4120.000000
$GPGGA,203514.00,4820.81412446,N,12103.15599171,W,1,09,1.1,2031.349,M,-16.480,M,,*6F
Trace #4131 at position 4130.000000
$GPGGA,203516.00,4820.81556340,N,12103.15511375,W,1,09,1.1,2031.011,M,-16.480,M,,*65
Trace #4141 at position 4140.000000
$GPGGA,203517.00,4820.81614560,N,12103.15474975,W,1,09,1.1,2030.898,M,-16.480,M,,*65
Trace #4151 at position 4150.000000
$GPGGA,203518.00,4820.81682092,N,12103.15434483,W,1,09,1.1,2030.799,M,-16.480,M,,*63
Trace #4161 at position 4160.000000
$GPGGA,203520.00,4820.81812564,N,12103.15353532,W,1,09,1.1,2030.569,M,-16.480,M,,*63
Trace #4171 at position 4170.000000
$GPGGA,203521.00,4820.81879138,N,12103.15313107,W,1,09,1.1,2030.457,M,-16.480,M,,*68
Trace #4181 at position 4180.000000
$GPGGA,203523.00,4820.81996910,N,12103.15238666,W,1,09,1.1,2030.271,M,-16.480,M,,*62
Trace #4191 at position 4190.000000
$GPGGA,203524.00,4820.82062048,N,12103.15195894,W,1,09,1.1,2030.159,M,-16.480,M,,*6E
Trace #4201 at position 4200.000000
$GPGGA,203525.00,4820.82123169,N,12103.15156672,W,1,09,1.1,2030.093,M,-16.480,M,,*67
Trace #4211 at position 4210.000000
$GPGGA,203527.00,4820.82248496,N,12103.15080659,W,1,09,1.1,2029.878,M,-16.480,M,,*68
Trace #4221 at position 4220.000000
$GPGGA,203528.00,4820.82311052,N,12103.15043079,W,1,09,1.1,2029.770,M,-16.480,M,,*6A
Trace #4231 at position 4230.000000
$GPGGA,203530.00,4820.82420964,N,12103.14974896,W,1,09,1.1,2029.567,M,-16.480,M,,*6B
Trace #4241 at position 4240.000000
$GPGGA,203531.00,4820.82478751,N,12103.14938117,W,1,09,1.1,2029.502,M,-16.480,M,,*64
Trace #4251 at position 4250.000000
$GPGGA,203532.00,4820.82541806,N,12103.14899654,W,1,09,1.1,2029.405,M,-16.480,M,,*6D
Trace #4261 at position 4260.000000
$GPGGA,203534.00,4820.82662251,N,12103.14823433,W,1,09,1.1,2029.218,M,-16.480,M,,*69
Trace #4271 at position 4270.000000
$GPGGA,203535.00,4820.82720426,N,12103.14785564,W,1,09,1.1,2029.137,M,-16.480,M,,*67
Trace #4281 at position 4280.000000
$GPGGA,203537.00,4820.82834621,N,12103.14711596,W,1,09,1.1,2028.955,M,-16.480,M,,*67
Trace #4291 at position 4290.000000
$GPGGA,203538.00,4820.82895192,N,12103.14672889,W,1,09,1.1,2028.920,M,-16.480,M,,*69
Trace #4301 at position 4300.000000
$GPGGA,203539.00,4820.82951260,N,12103.14636447,W,1,09,1.1,2028.843,M,-16.480,M,,*65
Trace #4311 at position 4310.000000
$GPGGA,203541.00,4820.83060582,N,12103.14565020,W,1,09,1.1,2028.703,M,-16.480,M,,*60
Trace #4321 at position 4320.000000
$GPGGA,203542.00,4820.83115966,N,12103.14530781,W,1,09,1.1,2028.642,M,-16.480,M,,*6E
Trace #4331 at position 4330.000000
$GPGGA,203544.00,4820.83226501,N,12103.14463892,W,1,09,1.1,2028.521,M,-16.480,M,,*6A
Trace #4341 at position 4340.000000
$GPGGA,203545.00,4820.83286937,N,12103.14430538,W,1,09,1.1,2028.454,M,-16.480,M,,*60
Trace #4351 at position 4350.000000
$GPGGA,203547.00,4820.83400621,N,12103.14363419,W,1,09,1.1,2028.322,M,-16.480,M,,*67
Trace #4361 at position 4360.000000
$GPGGA,203548.00,4820.83461308,N,12103.14327881,W,1,09,1.1,2028.251,M,-16.480,M,,*69
Trace #4371 at position 4370.000000
$GPGGA,203549.00,4820.83517036,N,12103.14294711,W,1,09,1.1,2028.172,M,-16.480,M,,*6B
Trace #4381 at position 4380.000000
$GPGGA,203551.00,4820.83627321,N,12103.14229748,W,1,09,1.1,2028.035,M,-16.480,M,,*6F
Trace #4391 at position 4390.000000
$GPGGA,203552.00,4820.83686056,N,12103.14196330,W,1,09,1.1,2027.992,M,-16.480,M,,*63
Trace #4401 at position 4400.000000
$GPGGA,203554.00,4820.83791537,N,12103.14139712,W,1,09,1.1,2027.877,M,-16.480,M,,*6B
Trace #4411 at position 4410.000000
$GPGGA,203555.00,4820.83844459,N,12103.14108780,W,1,09,1.1,2027.844,M,-16.480,M,,*6D
Trace #4421 at position 4420.000000
$GPGGA,203556.00,4820.83902536,N,12103.14075861,W,1,09,1.1,2027.779,M,-16.480,M,,*6F
Trace #4431 at position 4430.000000
$GPGGA,203558.00,4820.83998444,N,12103.14017460,W,1,09,1.1,2027.691,M,-16.480,M,,*68
Trace #4441 at position 4440.000000
$GPGGA,203559.00,4820.84055157,N,12103.13983611,W,1,09,1.1,2027.680,M,-16.480,M,,*66
Trace #4451 at position 4450.000000
$GPGGA,203601.00,4820.84159498,N,12103.13916749,W,1,09,1.1,2027.582,M,-16.480,M,,*62
Trace #4461 at position 4460.000000
$GPGGA,203602.00,4820.84213246,N,12103.13883171,W,1,09,1.1,2027.528,M,-16.480,M,,*69
Trace #4471 at position 4470.000000
$GPGGA,203603.00,4820.84266362,N,12103.13849700,W,1,09,1.1,2027.475,M,-16.480,M,,*62
Trace #4481 at position 4480.000000
$GPGGA,203605.00,4820.84361574,N,12103.13791316,W,1,09,1.1,2027.408,M,-16.480,M,,*60
Trace #4491 at position 4490.000000
$GPGGA,203606.00,4820.84414043,N,12103.13757466,W,1,09,1.1,2027.353,M,-16.480,M,,*64
Trace #4501 at position 4500.000000
$GPGGA,203608.00,4820.84507547,N,12103.13695761,W,1,09,1.1,2027.271,M,-16.480,M,,*62
Trace #4511 at position 4510.000000
$GPGGA,203609.00,4820.84554881,N,12103.13663878,W,1,09,1.1,2027.236,M,-16.480,M,,*6F
Trace #4521 at position 4520.000000
$GPGGA,203611.00,4820.84660284,N,12103.13602157,W,1,09,1.1,2027.093,M,-16.480,M,,*63
Trace #4531 at position 4530.000000
$GPGGA,203612.00,4820.84706900,N,12103.13574198,W,1,09,1.1,2027.048,M,-16.480,M,,*61
Trace #4541 at position 4540.000000
$GPGGA,203613.00,4820.84749238,N,12103.13549584,W,1,09,1.1,2027.030,M,-16.480,M,,*63
Trace #4551 at position 4550.000000
$GPGGA,203615.00,4820.84784669,N,12103.13528275,W,1,09,1.1,2026.988,M,-16.480,M,,*61
Trace #4561 at position 4560.000000
$GPGGA,203616.00,4820.84784763,N,12103.13527947,W,1,09,1.1,2027.003,M,-16.480,M,,*67
Trace #4571 at position 4570.000000
$GPGGA,203618.00,4820.84784626,N,12103.13527787,W,1,09,1.1,2027.001,M,-16.480,M,,*69
Trace #4581 at position 4580.000000
$GPGGA,203619.00,4820.84784941,N,12103.13527231,W,1,09,1.1,2027.007,M,-16.480,M,,*68
Trace #4591 at position 4590.000000
$GPGGA,203620.00,4820.84784777,N,12103.13527385,W,1,09,1.1,2026.995,M,-16.480,M,,*64
Trace #4601 at position 4600.000000
$GPGGA,203622.00,4820.84784002,N,12103.13527305,W,1,09,1.1,2026.992,M,-16.480,M,,*6C
Trace #4611 at position 4610.000000
$GPGGA,203623.00,4820.84783377,N,12103.13527443,W,1,09,1.1,2026.984,M,-16.480,M,,*69
Trace #4621 at position 4620.000000
$GPGGA,203625.00,4820.84785062,N,12103.13526075,W,1,09,1.1,2026.987,M,-16.480,M,,*6D
Trace #4631 at position 4630.000000
$GPGGA,203626.00,4820.84804038,N,12103.13514783,W,1,09,1.1,2026.945,M,-16.480,M,,*66
Trace #4641 at position 4640.000000
$GPGGA,203627.00,4820.84839899,N,12103.13493689,W,1,09,1.1,2026.890,M,-16.480,M,,*66
Trace #4651 at position 4650.000000
$GPGGA,203629.00,4820.84933929,N,12103.13444722,W,1,09,1.1,2026.761,M,-16.480,M,,*62
Trace #4661 at position 4660.000000
$GPGGA,203630.00,4820.84974703,N,12103.13412695,W,1,09,1.1,2026.683,M,-16.480,M,,*6C
Trace #4671 at position 4670.000000
$GPGGA,203632.00,4820.85049734,N,12103.13360635,W,1,09,1.1,2026.604,M,-16.480,M,,*6B
Trace #4681 at position 4680.000000
$GPGGA,203633.00,4820.85094792,N,12103.13331239,W,1,09,1.1,2026.575,M,-16.480,M,,*6F
Trace #4691 at position 4690.000000
$GPGGA,203634.00,4820.85140108,N,12103.13303181,W,1,09,1.1,2026.548,M,-16.480,M,,*6A
Trace #4701 at position 4700.000000
$GPGGA,203636.00,4820.85228864,N,12103.13251179,W,1,09,1.1,2026.456,M,-16.480,M,,*69
Trace #4711 at position 4710.000000
$GPGGA,203637.00,4820.85234032,N,12103.13247832,W,1,09,1.1,2026.437,M,-16.480,M,,*68
Trace #4721 at position 4720.000000
$GPGGA,203639.00,4820.85233757,N,12103.13248619,W,1,09,1.1,2026.453,M,-16.480,M,,*6F
Trace #4731 at position 4730.000000
$GPGGA,203640.00,4820.85233976,N,12103.13248582,W,1,09,1.1,2026.455,M,-16.480,M,,*6B
Trace #4741 at position 4740.000000
$GPGGA,203641.00,4820.85234549,N,12103.13248182,W,1,09,1.1,2026.465,M,-16.480,M,,*6A
Trace #4751 at position 4750.000000
$GPGGA,203643.00,4820.85235168,N,12103.13246770,W,1,09,1.1,2026.447,M,-16.480,M,,*6B
Trace #4761 at position 4760.000000
$GPGGA,203644.00,4820.85235615,N,12103.13246322,W,1,09,1.1,2026.451,M,-16.480,M,,*65
Trace #4771 at position 4770.000000
$GPGGA,203646.00,4820.85235550,N,12103.13246796,W,1,09,1.1,2026.424,M,-16.480,M,,*6C
Trace #4781 at position 4780.000000
$GPGGA,203647.00,4820.85235197,N,12103.13246897,W,1,09,1.1,2026.435,M,-16.480,M,,*6C
Trace #4791 at position 4790.000000
$GPGGA,203649.00,4820.85234681,N,12103.13247530,W,1,09,1.1,2026.448,M,-16.480,M,,*68
Trace #4801 at position 4800.000000
$GPGGA,203650.00,4820.85234815,N,12103.13247558,W,1,09,1.1,2026.451,M,-16.480,M,,*65
Trace #4811 at position 4810.000000
$GPGGA,203651.00,4820.85234795,N,12103.13247729,W,1,09,1.1,2026.461,M,-16.480,M,,*64
Trace #4821 at position 4820.000000
$GPGGA,203653.00,4820.85264143,N,12103.13230328,W,1,09,1.1,2026.457,M,-16.480,M,,*6E
Trace #4831 at position 4830.000000
$GPGGA,203654.00,4820.85306623,N,12103.13204367,W,1,09,1.1,2026.444,M,-16.480,M,,*63
Trace #4841 at position 4840.000000
$GPGGA,203656.00,4820.85414261,N,12103.13137950,W,1,09,1.1,2026.336,M,-16.480,M,,*68
Trace #4851 at position 4850.000000
$GPGGA,203657.00,4820.85467798,N,12103.13106715,W,1,09,1.1,2026.291,M,-16.480,M,,*6F
Trace #4861 at position 4860.000000
$GPGGA,203658.00,4820.85527492,N,12103.13072260,W,1,09,1.1,2026.242,M,-16.480,M,,*67
Trace #4871 at position 4870.000000
$GPGGA,203700.00,4820.85636006,N,12103.13009365,W,1,09,1.1,2026.139,M,-16.480,M,,*66
Trace #4881 at position 4880.000000
$GPGGA,203701.00,4820.85694106,N,12103.12973669,W,1,09,1.1,2026.078,M,-16.480,M,,*66
Trace #4891 at position 4890.000000
